City,City,Country,Lat,Lng,Max Temp,Humidity,Cloudiness,Wind Speed,Climate Description
0,Busselton,AU,-33.65,115.3333,59.76,63,0,13.33,clear sky
1,Tasiilaq,GL,65.6145,-37.6368,34.57,98,100,8.57,light snow
2,Jamestown,US,42.097,-79.2353,47.84,66,0,5.75,clear sky
3,Atuona,PF,-9.8,-139.0333,76.39,78,28,19.46,scattered clouds
4,Manado,ID,1.487,124.8455,83.17,78,40,6.91,light rain
5,Albany,US,42.6001,-73.9662,49.68,80,100,2.73,overcast clouds
6,Te Anau,NZ,-45.4167,167.7167,45.82,91,99,6.73,overcast clouds
7,Emerald,AU,-23.5333,148.1667,76.33,51,10,15.3,clear sky
8,Kinkala,CG,-4.3614,14.7644,70.93,87,76,2.44,broken clouds
9,Hobart,AU,-42.8794,147.3294,55.26,57,40,19.57,scattered clouds
10,Nanortalik,GL,60.1432,-45.2371,36.37,74,5,4.21,clear sky
11,Cape Town,ZA,-33.9258,18.4232,61.38,85,20,6.91,few clouds
12,Ambilobe,MG,-13.2,49.05,63.9,83,10,3.4,clear sky
13,Isangel,VU,-19.55,169.2667,78.91,78,75,9.22,broken clouds
14,Yellowknife,CA,62.456,-114.3525,45.12,70,75,9.22,broken clouds
15,Khatanga,RU,71.9667,102.5,18.18,86,100,6.38,overcast clouds
16,Punta Arenas,CL,-53.15,-70.9167,42.91,87,75,8.05,broken clouds
17,Rikitea,PF,-23.1203,-134.9692,71.42,65,89,19.66,overcast clouds
18,Sangar,RU,63.9242,127.4739,26.74,60,94,5.48,overcast clouds
19,Balikpapan,ID,-1.2675,116.8289,83.39,79,20,3.44,few clouds
20,Ushuaia,AR,-54.8,-68.3,46.06,66,0,3.44,clear sky
21,East London,ZA,-33.0153,27.9116,62.64,70,100,14.67,overcast clouds
22,Alekseyevka,RU,50.6309,38.6903,49.24,75,20,11.56,few clouds
23,Huaicheng,CN,23.9051,112.1931,88.77,56,5,1.16,clear sky
24,Hasaki,JP,35.7333,140.8333,84.22,69,37,22.1,scattered clouds
25,Provideniya,RU,64.3833,-173.3,44.71,70,0,7.0,clear sky
26,Vaini,TO,-21.2,-175.2,82.56,69,75,14.97,broken clouds
27,Mattru,SL,7.6244,-11.8332,72.32,99,99,2.62,overcast clouds
28,The Pas,CA,53.8251,-101.2541,46.42,76,0,0.0,clear sky
29,Vao,NC,-22.6667,167.4833,69.21,65,3,16.35,clear sky
30,Kletnya,RU,53.3897,33.2171,39.45,93,100,11.86,overcast clouds
31,Mar Del Plata,AR,-38.0023,-57.5575,52.09,88,0,8.05,clear sky
32,Praia,CV,14.9215,-23.5087,79.34,83,75,12.66,broken clouds
33,Komsomolskiy,UZ,40.4272,71.7189,54.32,50,0,6.91,clear sky
34,Puerto El Triunfo,SV,13.2833,-88.55,75.49,92,100,3.85,overcast clouds
35,Omboue,GA,-1.5746,9.2618,75.09,88,99,6.93,light rain
36,Ribeira Grande,PT,38.5167,-28.7,69.53,82,99,3.02,overcast clouds
37,Tiznit,MA,29.5833,-9.5,75.4,28,5,0.13,clear sky
38,Pisco,PE,-13.7,-76.2167,59.05,88,0,16.11,clear sky
39,Fairbanks,US,64.8378,-147.7164,51.8,72,40,5.75,scattered clouds
40,Clyde River,CA,70.4692,-68.5914,28.63,100,100,5.75,overcast clouds
41,Qaqortoq,GL,60.7167,-46.0333,34.99,60,0,6.67,clear sky
42,Qaanaaq,GL,77.484,-69.3632,17.44,72,100,6.17,overcast clouds
43,Vengerovo,RU,55.6848,76.7471,32.52,66,81,6.11,broken clouds
44,Hervey Bay,AU,-25.2986,152.8535,75.02,47,33,5.99,scattered clouds
45,Puerto Ayora,EC,-0.7393,-90.3518,65.55,94,38,4.0,scattered clouds
46,Bluff,NZ,-46.6,168.3333,45.03,86,100,19.95,light rain
47,Quelimane,MZ,-17.8786,36.8883,69.75,94,0,0.0,clear sky
48,Cidreira,BR,-30.1811,-50.2056,55.24,75,0,6.42,clear sky
49,Vardo,NO,70.3705,31.1107,37.38,93,100,4.61,overcast clouds
50,Quang Ngai,VN,15.1167,108.8,82.6,75,96,4.59,light rain
51,Hermanus,ZA,-34.4187,19.2345,55.8,71,53,6.89,broken clouds
52,Saskylakh,RU,71.9167,114.0833,16.25,95,95,6.17,overcast clouds
53,Kiruna,SE,67.8557,20.2251,36.52,100,100,0.0,mist
54,Castro,BR,-24.7911,-50.0119,55.96,98,100,4.47,light rain
55,Maldonado,UY,-34.6667,-54.9167,53.22,89,30,3.69,scattered clouds
56,Ilulissat,GL,69.2167,-51.1,16.9,82,29,6.22,scattered clouds
57,Tuktoyaktuk,CA,69.4541,-133.0374,24.8,86,100,14.97,overcast clouds
58,Palmer,US,42.1584,-72.3287,50.63,68,100,8.05,overcast clouds
59,Mahebourg,MU,-20.4081,57.7,70.25,78,20,6.91,few clouds
60,Mbandaka,CD,0.0487,18.2603,69.22,98,99,2.68,overcast clouds
61,Viransehir,TR,37.2353,39.7631,72.48,33,0,7.61,clear sky
62,Ussel,FR,45.55,2.3167,46.29,94,18,1.28,few clouds
63,Falkenberg,SE,56.9055,12.4912,49.95,95,38,2.71,scattered clouds
64,Upernavik,GL,72.7868,-56.1549,21.78,77,100,6.29,overcast clouds
65,Kosh-Agach,RU,50.0,88.6667,25.07,32,0,0.87,clear sky
66,Dikson,RU,73.5069,80.5464,31.42,99,100,3.13,light snow
67,Tezu,IN,27.9167,96.1667,75.9,97,100,0.87,overcast clouds
68,Kapaa,US,22.0752,-159.319,83.48,66,1,7.0,clear sky
69,Xudat,AZ,41.631,48.681,65.1,86,0,4.65,clear sky
70,Najran,SA,17.4924,44.1277,66.85,20,0,3.74,clear sky
71,Homer,US,59.6425,-151.5483,50.81,79,100,4.0,overcast clouds
72,Alofi,NU,-19.0595,-169.9187,82.29,74,75,12.66,broken clouds
73,Batemans Bay,AU,-35.7167,150.1833,65.1,56,81,9.48,broken clouds
74,Casablanca,MA,33.5928,-7.6192,75.33,73,0,5.99,clear sky
75,Guerrero Negro,MX,27.9769,-114.0611,69.6,80,58,15.7,broken clouds
76,Abu Samrah,SY,35.3029,37.1841,70.47,82,0,3.71,clear sky
77,Camacha,PT,33.0833,-16.3333,63.82,82,20,3.44,few clouds
78,Cabo San Lucas,MX,22.8909,-109.9124,83.17,72,2,5.77,clear sky
79,Souillac,MU,-20.5167,57.5167,70.18,78,20,6.91,few clouds
80,Chuy,UY,-33.6971,-53.4616,55.8,60,91,8.59,overcast clouds
81,Chifeng,CN,42.2683,118.9636,40.6,27,0,19.57,clear sky
82,Saint-Ambroise,CA,48.5501,-71.3324,46.0,61,89,2.3,overcast clouds
83,Ahipara,NZ,-35.1667,173.1667,59.31,71,91,12.15,overcast clouds
84,Poum,NC,-20.2333,164.0167,74.1,64,2,16.78,clear sky
85,Saint-Philippe,RE,-21.3585,55.7679,67.59,82,41,13.09,scattered clouds
86,New Norfolk,AU,-42.7826,147.0587,54.91,58,96,1.99,overcast clouds
87,Arraial Do Cabo,BR,-22.9661,-42.0278,67.93,85,100,3.49,light rain
88,Grindavik,IS,63.8424,-22.4338,51.75,76,100,17.27,overcast clouds
89,Belaya Gora,RU,68.5333,146.4167,26.01,78,97,5.19,overcast clouds
90,Salair,RU,54.2312,85.7972,31.75,66,16,3.2,few clouds
91,Harper,LR,4.375,-7.7169,75.6,90,99,5.01,overcast clouds
92,Berlevag,NO,70.8578,29.0864,39.0,93,100,5.75,overcast clouds
93,Utmanzai,PK,34.188,71.7629,72.21,56,0,2.51,clear sky
94,Ostrovnoy,RU,68.0531,39.5131,41.05,77,100,8.81,overcast clouds
95,Ancud,CL,-41.8697,-73.8203,48.87,94,100,12.64,light rain
96,Torbay,CA,47.6666,-52.7314,44.17,74,0,3.44,clear sky
97,Port Hardy,CA,50.6996,-127.4199,57.38,88,40,3.44,scattered clouds
98,Cortez,US,37.3489,-108.5859,55.04,67,79,3.94,broken clouds
99,Nikolskoye,RU,59.7035,30.7861,48.09,90,98,7.7,overcast clouds
100,Hithadhoo,MV,-0.6,73.0833,82.06,69,100,15.88,overcast clouds
101,Tura,IN,25.5198,90.2201,72.3,96,100,3.42,overcast clouds
102,Lebu,CL,-37.6167,-73.65,51.44,93,98,11.65,overcast clouds
103,Bud,US,39.447,-86.1758,55.67,65,0,7.47,clear sky
104,Iqaluit,CA,63.7506,-68.5145,38.93,80,100,16.11,light rain
105,Saint George,US,37.1041,-113.5841,79.39,31,0,13.8,clear sky
106,Saint Anthony,US,45.0205,-93.218,67.75,57,75,1.99,broken clouds
107,Ileza,RU,61.0533,43.9002,48.74,93,100,7.94,overcast clouds
108,Bereda,ES,43.2686,-7.5406,56.41,100,0,1.34,clear sky
109,Hilo,US,19.7297,-155.09,83.28,88,100,11.5,overcast clouds
110,Anton Lizardo,MX,19.05,-95.9833,77.79,75,3,8.21,clear sky
111,Alice Springs,AU,-23.7,133.8833,88.21,40,75,8.05,broken clouds
112,Skjervoy,NO,70.0311,20.9714,37.4,75,98,10.96,overcast clouds
113,Mount Pleasant,US,32.7941,-79.8626,60.01,89,0,4.61,clear sky
114,Comodoro Rivadavia,AR,-45.8667,-67.5,53.46,66,0,2.3,clear sky
115,Isiro,CD,2.7739,27.616,63.91,100,95,0.98,moderate rain
116,Gobabis,NA,-22.45,18.9667,64.53,17,0,10.56,clear sky
117,Ulaangom,MN,49.9811,92.0667,32.7,35,0,1.16,clear sky
118,Penzance,GB,50.1186,-5.5371,57.88,86,100,16.13,overcast clouds
119,Koupela,BF,12.1794,-0.3517,78.66,73,2,11.36,clear sky
120,Port Shepstone,ZA,-30.7414,30.455,66.79,74,100,17.11,light rain
121,Aklavik,CA,68.2191,-135.0107,26.6,92,86,7.61,overcast clouds
122,Pauini,BR,-7.7136,-66.9764,77.49,66,52,0.89,broken clouds
123,Dicabisagan,PH,17.0818,122.4157,85.95,68,61,3.62,broken clouds
124,Thompson,CA,55.7435,-97.8558,39.36,81,20,0.0,few clouds
125,Carupano,VE,10.6678,-63.2585,78.37,87,100,5.7,overcast clouds
126,Kindia,GN,10.0569,-12.8658,69.4,97,100,1.05,light rain
127,Ijero,NG,6.4819,3.3803,77.23,100,20,2.3,few clouds
128,Kaitangata,NZ,-46.2817,169.8464,54.99,61,83,13.58,broken clouds
129,Salalah,OM,17.0151,54.0924,75.7,83,89,4.56,overcast clouds
130,Lang Suan,TH,9.9456,99.0785,80.62,82,100,4.34,overcast clouds
131,Avarua,CK,-21.2078,-159.775,78.85,73,40,20.71,scattered clouds
132,Waipawa,NZ,-41.4122,175.5153,57.92,55,10,9.44,clear sky
133,Hirara,JP,24.8,125.2833,86.27,70,20,5.75,few clouds
134,Ardakan,IR,32.31,54.0175,70.72,25,0,2.35,clear sky
135,Athabasca,CA,54.7169,-113.2854,55.81,59,11,6.44,few clouds
136,Bilma,NE,18.6853,12.9164,84.47,17,0,10.38,clear sky
137,Syracuse,IT,37.0881,15.2792,61.97,73,98,9.48,overcast clouds
138,Klaksvik,FO,62.2266,-6.589,52.72,98,100,24.81,light rain
139,Severo-Kurilsk,RU,50.6789,156.125,53.4,73,99,16.37,overcast clouds
140,Strezhevoy,RU,60.7333,77.5889,37.35,93,100,12.08,overcast clouds
141,Clarksburg,US,39.2807,-80.3445,51.33,96,100,4.03,overcast clouds
142,Vostok,RU,46.4856,135.8833,32.38,58,31,14.36,scattered clouds
143,Wairoa,NZ,-39.0333,177.3667,56.55,65,0,4.0,clear sky
144,Synya,RU,65.3718,58.0387,37.99,85,100,1.72,overcast clouds
145,Kojnare,BG,43.35,24.1333,51.91,66,0,14.25,clear sky
146,Aykhal,RU,66.0,111.5,19.56,92,70,8.43,broken clouds
147,Borogontsy,RU,62.6683,131.1683,27.73,56,94,5.21,overcast clouds
148,Sitka,US,57.0531,-135.33,52.39,78,97,2.77,overcast clouds
149,Bredasdorp,ZA,-34.5322,20.0403,49.89,89,0,6.15,clear sky
150,Qianan,CN,44.9932,124.0581,42.71,27,0,15.68,clear sky
151,Sinjai,ID,-5.1241,120.253,86.88,61,95,6.24,overcast clouds
152,Lagoa,PT,39.05,-27.9833,68.47,80,96,4.76,overcast clouds
153,La Ronge,CA,55.1001,-105.2842,46.65,66,20,2.3,smoke
154,Carnarvon,AU,-24.8667,113.6333,73.33,37,0,2.55,clear sky
155,Marsa Matruh,EG,31.3525,27.2453,70.0,73,0,6.91,clear sky
156,Mathbaria,BD,22.2876,89.9593,82.81,86,100,8.86,overcast clouds
157,Sobolevo,RU,54.4299,31.8996,38.88,97,100,14.29,light rain
158,Parabel,RU,58.6978,81.4825,32.22,70,100,10.25,overcast clouds
159,Esperance,AU,-33.8667,121.9,60.64,78,54,11.14,broken clouds
160,Bandarbeyla,SO,9.4942,50.8122,76.68,76,29,19.42,scattered clouds
161,Khani,GE,41.9563,42.9566,56.77,86,100,5.08,overcast clouds
162,Tommot,RU,58.9564,126.2925,27.97,84,100,9.91,light snow
163,Norman Wells,CA,65.282,-126.8329,35.64,100,100,4.61,light rain
164,Mount Gambier,AU,-37.8333,140.7667,59.77,71,100,10.38,moderate rain
165,Port Alfred,ZA,-33.5906,26.891,57.18,86,100,3.0,overcast clouds
166,West Lafayette,US,40.4259,-86.9081,54.75,71,1,6.98,clear sky
167,El Dorado,US,38.7666,-120.5177,72.12,60,0,1.01,clear sky
168,Chebenki,RU,51.9337,55.7077,35.35,38,0,8.34,clear sky
169,Saldanha,ZA,-33.0117,17.9442,44.65,81,2,8.08,clear sky
170,Maragogi,BR,-9.0122,-35.2225,75.58,75,67,7.31,broken clouds
171,Faya,SA,18.3851,42.4509,62.71,31,1,5.61,clear sky
172,Bridlington,GB,54.0831,-0.1919,55.33,88,99,18.68,overcast clouds
173,Krasnoselkup,RU,65.7,82.4667,33.75,97,100,20.49,light snow
174,Bulgan,MN,48.8125,103.5347,31.17,29,0,3.71,clear sky
175,Pimentel,PE,-6.8367,-79.9342,62.37,85,54,14.36,broken clouds
176,Pacific Grove,US,36.6177,-121.9166,69.22,78,0,10.0,clear sky
177,Tiksi,RU,71.6872,128.8694,20.86,88,81,11.39,broken clouds
178,Fort Nelson,CA,58.8053,-122.7002,54.99,47,75,2.3,broken clouds
179,Leningradskiy,RU,69.3833,178.4167,31.55,91,100,5.79,light snow
180,Kahului,US,20.8947,-156.47,80.96,89,40,10.0,scattered clouds
181,Narbonne,FR,43.0833,2.8333,58.33,70,7,4.7,clear sky
182,Taoudenni,ML,22.6783,-3.9836,91.56,19,11,13.09,few clouds
183,Rustenburg,ZA,-25.6676,27.2421,72.7,24,0,1.79,clear sky
184,Fortuna,US,40.5982,-124.1573,58.93,81,5,3.85,clear sky
185,Manzhouli,CN,49.6,117.4333,34.97,43,2,14.79,clear sky
186,Key West,US,24.5557,-81.7826,84.0,63,46,5.99,scattered clouds
187,Caninde,BR,-4.3589,-39.3117,74.19,67,33,3.51,scattered clouds
188,Northam,GB,51.0333,-4.2167,57.38,90,52,13.0,broken clouds
189,Mataura,NZ,-46.1927,168.8643,45.82,91,99,8.68,overcast clouds
190,Ust-Tsilma,RU,65.441,52.1498,36.73,93,100,3.67,overcast clouds
191,Broome,US,42.2506,-75.833,50.02,74,100,3.0,overcast clouds
192,Yumen,CN,40.2833,97.2,43.43,39,0,20.29,clear sky
193,Baruun-Urt,MN,46.6806,113.2792,33.28,31,0,11.34,clear sky
194,Longyearbyen,SJ,78.2186,15.6401,37.24,81,75,0.0,broken clouds
195,Sri Aman,MY,1.2376,111.4621,80.65,89,20,3.44,few clouds
196,Ayagoz,KZ,47.9714,80.4392,36.68,31,90,13.44,overcast clouds
197,Russell,US,32.3502,-85.1999,66.0,70,19,4.83,few clouds
198,Mino,JP,34.8269,135.4706,82.83,64,75,6.91,broken clouds
199,Luderitz,NA,-26.6481,15.1594,56.39,80,0,18.23,clear sky
200,Bengkulu,ID,-3.8004,102.2655,79.63,79,100,3.15,overcast clouds
201,Namibe,AO,-15.1961,12.1522,66.27,89,47,2.1,scattered clouds
202,Acapulco,MX,16.8634,-99.8901,79.45,80,34,7.18,scattered clouds
203,Lexington,US,37.9887,-84.4777,53.94,62,0,8.55,clear sky
204,Pangnirtung,CA,66.1451,-65.7125,34.79,57,100,9.91,light snow
205,Port Elizabeth,ZA,-33.918,25.5701,59.29,84,0,17.27,clear sky
206,Barrow,US,71.2906,-156.7887,25.12,87,34,9.46,scattered clouds
207,Georgetown,MY,5.4112,100.3354,84.88,81,20,5.75,few clouds
208,Christchurch,NZ,-43.5333,172.6333,66.33,57,41,12.66,scattered clouds
209,Whitianga,NZ,-36.8333,175.7,55.36,85,100,5.37,overcast clouds
210,San Cristobal,VE,7.7669,-72.225,75.38,87,59,2.39,broken clouds
211,Canete,CL,-37.8,-73.4,49.05,95,88,6.55,overcast clouds
212,Lakes Entrance,AU,-37.8811,147.981,57.16,67,100,9.33,overcast clouds
213,Cuauhtemoc,MX,28.4167,-106.8667,58.24,66,13,7.11,few clouds
214,Boden,SE,65.8252,21.6886,46.4,95,100,1.77,overcast clouds
215,Gimli,CA,50.6336,-96.9907,59.02,88,55,4.61,broken clouds
216,Salinas,US,36.6777,-121.6555,68.79,70,0,6.91,clear sky
217,Bathsheba,BB,13.2167,-59.5167,81.21,89,40,13.8,scattered clouds
218,Lavrentiya,RU,65.5833,-171.0,39.94,69,16,3.04,few clouds
219,Necochea,AR,-38.5473,-58.7368,45.21,88,100,14.94,overcast clouds
220,Whyalla,AU,-33.0333,137.5833,76.12,41,31,18.57,scattered clouds
221,Timbiras,BR,-4.2553,-43.9406,76.73,75,23,5.59,few clouds
222,Boca Do Acre,BR,-8.7522,-67.3978,75.22,78,71,0.58,broken clouds
223,Yar-Sale,RU,66.8333,70.8333,37.99,81,100,12.06,overcast clouds
224,Japura,ID,-0.3167,102.35,75.76,95,100,1.43,overcast clouds
225,Sola,VU,-13.8833,167.55,80.38,75,17,10.74,few clouds
226,De Aar,ZA,-30.6497,24.0123,54.21,38,59,7.65,broken clouds
227,Shelton,US,41.3165,-73.0932,50.52,81,100,18.41,overcast clouds
228,Parasia,IN,22.2,78.7667,70.05,80,88,6.73,overcast clouds
229,Ciudad Valles,MX,21.9833,-99.0167,70.79,91,99,2.01,overcast clouds
230,Yayva,RU,59.3303,57.2641,43.18,88,100,6.02,overcast clouds
231,Walvis Bay,NA,-22.9575,14.5053,56.08,94,0,12.66,clear sky
232,Tessalit,ML,20.1986,1.0114,85.71,14,0,11.61,clear sky
233,Shiyan,CN,32.6475,110.7781,55.62,90,100,13.22,overcast clouds
234,Port Augusta,AU,-32.5,137.7667,82.08,32,95,20.98,overcast clouds
235,San Rafael,AR,-34.6177,-68.3301,69.84,35,71,18.92,broken clouds
236,Great Bend,US,38.3645,-98.7648,72.03,34,14,10.94,few clouds
237,Naraina,IN,26.7833,75.2,76.39,55,0,9.91,clear sky
238,Alta Floresta,BR,-9.8756,-56.0861,73.08,81,14,1.92,heavy intensity rain
239,Nakhon Phanom,TH,17.3333,104.4167,82.08,73,11,4.72,few clouds
240,Mazagao,BR,-0.115,-51.2894,84.25,82,88,7.4,light rain
241,Cabreuva,BR,-23.3075,-47.1328,65.59,85,65,8.99,broken clouds
242,Murdochville,CA,48.9583,-65.5006,40.08,61,3,4.59,clear sky
243,Ambalavao,MG,-21.8333,46.9333,60.08,62,0,2.89,clear sky
244,Mao,ES,39.8885,4.2658,64.96,88,0,4.61,clear sky
245,Butaritari,KI,3.0707,172.7902,81.84,74,85,11.56,overcast clouds
246,Isla Vista,US,34.4133,-119.861,73.62,75,0,5.7,clear sky
247,Ketchikan,US,55.3422,-131.6461,52.88,78,99,4.29,overcast clouds
248,Vila Franca Do Campo,PT,37.7167,-25.4333,75.2,93,46,10.63,light rain
249,Shitkino,RU,56.3703,98.3543,28.78,87,100,0.54,overcast clouds
250,Colquechaca,BO,-18.6667,-66.0167,36.05,71,2,4.97,clear sky
251,Axim,GH,4.8699,-2.2405,75.09,93,71,5.64,broken clouds
252,Beringovskiy,RU,63.05,179.3167,37.47,71,100,8.08,overcast clouds
253,Launceston,AU,-41.45,147.1667,59.14,54,40,19.57,scattered clouds
254,Kharsia,IN,21.9667,83.1167,77.22,88,100,3.62,moderate rain
255,Ponta Do Sol,PT,32.6667,-17.1,68.63,69,70,2.04,broken clouds
256,Cuamba,MZ,-14.8031,36.5372,70.65,44,0,6.06,clear sky
257,Goedereede,NL,51.8175,3.9806,54.01,87,100,1.01,overcast clouds
258,Boli,CN,45.7667,130.5167,40.91,55,4,14.32,clear sky
259,Gatton,AU,-27.55,152.2833,70.74,42,10,5.5,clear sky
260,Karaton,ID,-6.3424,106.1045,79.7,78,100,5.35,overcast clouds
261,Mandurah,AU,-32.55,115.7,62.83,53,0,13.15,clear sky
262,Kununurra,AU,-15.7667,128.7333,93.18,40,3,5.75,clear sky
263,George,ZA,-33.963,22.4617,56.75,72,100,6.91,overcast clouds
264,Bundaberg,AU,-24.85,152.35,76.21,48,1,5.01,clear sky
265,Sabang,ID,5.8933,95.3214,81.07,76,88,15.52,light rain
266,Mitsamiouli,KM,-11.3847,43.2844,74.61,73,7,4.59,clear sky
267,Grenaa,DK,56.4158,10.8783,50.22,96,82,10.87,broken clouds
268,Ternate,ID,0.8,127.4,82.99,72,100,1.88,overcast clouds
269,Aquidauana,BR,-20.4711,-55.7872,73.13,52,10,3.85,clear sky
270,Bay Roberts,CA,47.5999,-53.2648,43.92,69,7,5.48,clear sky
271,Almaznyy,RU,48.0448,40.045,52.54,74,100,6.69,overcast clouds
272,Karratha,AU,-20.7377,116.8463,82.15,36,0,8.61,clear sky
273,Los Llanos De Aridane,ES,28.6585,-17.9182,74.12,51,20,8.05,few clouds
274,Bafut,CM,6.0833,10.1,62.26,96,100,0.94,overcast clouds
275,Praya,CV,14.9215,-23.5087,79.29,80,100,10.09,overcast clouds
276,Doka,SD,13.5167,35.7667,69.04,94,100,7.74,overcast clouds
277,Alpena,US,45.0617,-83.4327,48.11,99,0,0.0,clear sky
278,Nhlangano,SZ,-27.1167,31.2,61.29,87,82,4.09,broken clouds
279,Sao Joao Da Barra,BR,-21.6403,-41.0511,68.77,92,98,5.84,overcast clouds
280,Talnakh,RU,69.4865,88.3972,33.21,94,100,25.12,snow
281,Stabat,ID,3.761,98.4513,78.19,80,100,2.91,overcast clouds
282,Basco,PH,20.4487,121.9702,83.44,78,56,13.33,broken clouds
283,Solnechnyy,RU,50.7214,136.6319,33.69,72,100,12.39,overcast clouds
284,Yeppoon,AU,-23.1333,150.7333,74.98,52,5,15.1,clear sky
285,Richards Bay,ZA,-28.783,32.0377,70.2,76,100,15.21,overcast clouds
286,Yerbogachen,RU,61.2767,108.0108,29.46,63,21,7.56,few clouds
287,Redding,US,40.5865,-122.3917,83.97,40,0,6.91,clear sky
288,Allapalli,IN,19.4167,80.0667,75.27,85,100,3.0,overcast clouds
289,Vilhena,BR,-12.7406,-60.1458,69.35,93,90,2.93,overcast clouds
290,Dali,CN,25.7,100.1833,65.93,84,91,2.77,overcast clouds
291,Pitimbu,BR,-7.4706,-34.8086,74.84,80,47,9.82,scattered clouds
292,Petropavlovsk-Kamchatskiy,RU,53.0452,158.6483,59.59,63,20,8.95,few clouds
293,Noumea,NC,-22.2763,166.4572,76.98,59,14,12.17,few clouds
294,Kamaishi,JP,39.2667,141.8833,73.47,72,99,15.17,light rain
295,Mazara Del Vallo,IT,37.6641,12.588,66.54,80,21,6.87,few clouds
296,Lisakovsk,KZ,52.5369,62.4936,36.01,39,8,4.36,clear sky
297,Carutapera,BR,-1.195,-46.02,77.85,81,9,7.74,clear sky
298,Victoria,HK,22.2855,114.1577,88.97,75,4,5.01,clear sky
299,Huangzhou,CN,30.45,114.8,75.18,69,91,10.09,overcast clouds
300,Dayong,CN,25.0209,118.2898,90.66,56,0,2.39,clear sky
301,Tavda,RU,58.0425,65.2726,49.6,77,100,8.16,overcast clouds
302,Sioux Lookout,CA,50.1001,-91.917,54.55,85,93,3.0,overcast clouds
303,Lincoln,US,40.8,-96.667,71.29,50,63,4.0,broken clouds
304,Umm Lajj,SA,25.0213,37.2685,82.99,59,0,2.91,clear sky
305,College,US,64.8569,-147.8028,48.97,77,56,4.32,broken clouds
306,Lorengau,PG,-2.0226,147.2712,86.11,67,16,10.83,few clouds
307,Denpasar,ID,-8.65,115.2167,78.46,88,75,3.44,broken clouds
308,Conceicao Do Araguaia,BR,-8.2578,-49.2647,81.25,41,40,2.46,scattered clouds
309,Husavik,IS,66.0449,-17.3389,42.37,92,93,6.76,overcast clouds
310,Del Rio,US,29.3627,-100.8968,75.24,49,100,10.29,overcast clouds
311,Iasmos,GR,41.1333,25.1833,60.93,49,97,4.09,overcast clouds
312,Vanavara,RU,60.34,102.2797,29.44,70,21,5.23,few clouds
313,Velten,DE,52.6833,13.1833,57.29,89,95,1.01,overcast clouds
314,Salta,AR,-24.7859,-65.4117,64.58,60,26,1.99,scattered clouds
315,Karnobat,BG,42.65,26.9833,49.84,68,2,5.7,clear sky
316,Fernie,CA,49.5,-115.0687,59.18,67,3,2.59,clear sky
317,Veyrier,CH,46.167,6.1844,57.09,82,100,1.14,overcast clouds
318,Celestun,MX,20.8667,-90.4,79.14,73,27,13.53,scattered clouds
319,Vale,GE,41.6156,42.8722,56.64,80,100,2.98,overcast clouds
320,Port Hedland,AU,-20.3167,118.5667,80.65,61,40,12.66,scattered clouds
321,Pyapon,MM,16.2833,95.6833,81.48,84,13,9.93,few clouds
322,Imbituba,BR,-28.24,-48.6703,60.22,81,100,8.61,overcast clouds
323,Puerto Plata,DO,19.7934,-70.6884,75.45,87,100,2.35,overcast clouds
324,Elko,US,41.0002,-115.5012,65.64,27,3,8.99,clear sky
325,Lao Cai,VN,22.4833,103.95,78.87,85,61,1.12,broken clouds
326,Awjilah,LY,29.1081,21.2869,69.57,75,0,10.04,clear sky
327,Liverpool,GB,53.4106,-2.9779,57.29,88,100,11.5,overcast clouds
328,Vila Velha,BR,-20.3297,-40.2925,75.15,94,100,10.0,moderate rain
329,Paraisopolis,BR,-22.5542,-45.78,59.95,96,58,2.53,broken clouds
330,Port Lincoln,AU,-34.7333,135.8667,58.24,90,100,25.21,overcast clouds
331,Colares,PT,38.7992,-9.4469,72.34,76,5,13.0,clear sky
332,Balvanesti,RO,44.7975,22.6803,45.72,83,35,6.71,scattered clouds
333,Poya,NC,-21.35,165.15,76.84,49,33,12.53,scattered clouds
334,Hambantota,LK,6.1241,81.1185,77.34,94,20,3.44,few clouds
335,Manta,EC,-0.95,-80.7333,71.56,87,100,15.57,overcast clouds
336,Spokane,US,47.6166,-117.3677,71.22,54,0,3.44,clear sky
337,Tiarei,PF,-17.5333,-149.3333,75.22,80,8,22.77,light rain
338,Nosy Varika,MG,-20.5833,48.5333,63.72,90,11,7.83,few clouds
339,Otorohanga,NZ,-38.1833,175.2,66.18,43,22,5.12,few clouds
340,Oneonta,US,42.4529,-75.0638,49.3,81,100,3.89,overcast clouds
341,Bridgetown,BB,13.1,-59.6167,81.36,80,70,14.74,broken clouds
342,Krasnyy Chikoy,RU,50.3643,108.7512,32.77,42,99,1.79,overcast clouds
343,Menongue,AO,-14.6585,17.691,61.95,27,20,4.7,few clouds
344,Katsuura,JP,35.1333,140.3,78.03,69,72,20.15,broken clouds
345,Hami,CN,42.8,93.45,54.64,11,17,5.86,few clouds
346,Riyadh,SA,24.6877,46.7219,75.34,25,0,0.63,clear sky
347,Tres Passos,BR,-27.4556,-53.9319,52.86,80,0,5.17,clear sky
348,Avera,US,33.194,-82.5271,57.25,74,5,5.48,clear sky
349,Bawku,GH,11.0616,-0.2417,75.97,83,15,6.87,few clouds
350,Constitucion,CL,-35.3333,-72.4167,48.43,90,15,4.27,few clouds
351,Eyrarbakki,IS,63.863,-21.1481,50.2,79,100,20.51,light rain
352,Sosnovo,RU,60.5514,30.2144,47.61,89,100,8.59,overcast clouds
353,Sao Filipe,CV,14.8961,-24.4956,79.07,80,100,8.5,light rain
354,Praia Da Vitoria,PT,38.7333,-27.0667,67.75,95,100,4.9,overcast clouds
355,Hamilton,US,39.1834,-84.5333,57.0,70,0,4.5,clear sky
356,Novoagansk,RU,61.9449,76.6625,38.82,95,100,12.41,light rain
357,Vieques,PR,18.425,-65.8329,82.11,81,100,8.75,overcast clouds
358,Kodiak,US,57.79,-152.4072,51.31,82,100,9.22,overcast clouds
359,Mutis,CO,6.2262,-77.4044,78.58,89,80,4.43,moderate rain
360,Geraldton,AU,-28.7667,114.6,73.81,35,0,11.5,clear sky
361,Kisangani,CD,0.5167,25.2,68.54,99,86,1.43,overcast clouds
362,Dongsheng,CN,39.8161,109.9776,35.2,37,0,12.39,clear sky
363,Boyolangu,ID,-8.1181,111.8935,78.67,78,98,6.06,overcast clouds
364,Matamoros,MX,25.5333,-103.25,60.12,79,99,0.85,overcast clouds
365,Tres Arroyos,AR,-38.3739,-60.2798,52.66,44,100,16.37,overcast clouds
366,Balkhash,KZ,46.844,74.9804,41.54,37,0,20.38,clear sky
367,Hanyang,CN,32.1371,105.5126,57.25,84,97,5.7,overcast clouds
368,Mananjary,MG,-21.2167,48.3333,65.14,89,13,7.9,few clouds
369,Baltasi,RU,56.3462,50.2062,50.18,48,100,12.48,overcast clouds
370,Klyuchi,RU,52.2667,79.1667,32.77,81,1,6.6,clear sky
371,Pevek,RU,69.7008,170.3133,29.43,75,100,8.66,overcast clouds
372,Hovd,MN,48.0056,91.6419,29.86,26,5,0.65,clear sky
373,Bambous Virieux,MU,-20.3428,57.7575,70.21,79,20,11.34,few clouds
374,Dzerzhinskoye,RU,56.8344,95.2283,29.59,86,43,1.61,scattered clouds
375,Airai,TL,-8.9266,125.4092,74.68,61,86,1.66,overcast clouds
376,Esmeraldas,BR,-19.7625,-44.3139,66.83,81,7,2.26,clear sky
377,Muros,ES,42.7762,-9.0603,58.08,95,2,2.75,clear sky
378,Lodja,CD,-3.4833,23.4333,68.63,88,100,1.57,overcast clouds
379,Bethel,US,41.3712,-73.414,48.54,87,100,3.0,overcast clouds
380,Valer,NO,60.6785,11.8331,37.89,95,74,2.44,broken clouds
381,Saint-Augustin,CA,51.226,-58.6502,43.05,62,9,14.61,clear sky
382,Novogagatli,RU,43.4568,46.4818,62.73,68,100,0.65,overcast clouds
383,Mirnyy,RU,62.5353,113.9611,28.24,86,69,7.0,broken clouds
384,Flinders,AU,-34.5833,150.8552,71.06,66,83,5.01,broken clouds
385,Kenai,US,60.5544,-151.2583,54.03,90,100,6.04,overcast clouds
386,Qasigiannguit,GL,68.8193,-51.1922,32.25,79,44,6.13,scattered clouds
387,Thinadhoo,MV,0.5333,72.9333,81.86,74,100,15.21,overcast clouds
388,Cholet,FR,47.1667,-1.0,55.31,87,6,4.99,clear sky
389,Chokurdakh,RU,70.6333,147.9167,25.43,81,99,3.94,overcast clouds
390,Jumla,NP,29.2747,82.1838,59.4,70,0,1.28,clear sky
391,Narsaq,GL,60.9167,-46.05,31.93,56,0,6.78,clear sky
392,Kamakwie,SL,9.5,-12.2333,72.75,98,100,1.66,overcast clouds
393,Sakakah,SA,29.9697,40.2064,76.75,17,0,7.14,clear sky
394,Pokaran,IN,26.9167,71.9167,79.88,53,0,9.08,clear sky
395,Leh,IN,34.1667,77.5833,43.16,51,3,4.9,clear sky
396,Half Moon Bay,US,37.4636,-122.4286,68.92,77,0,19.57,clear sky
397,Ashland,US,40.8167,-82.2665,47.97,90,95,6.31,overcast clouds
398,Daye,CN,30.0833,114.95,74.41,75,99,5.01,overcast clouds
399,Puerto Ayacucho,VE,5.6639,-67.6236,76.08,90,100,2.75,overcast clouds
400,Grafton,US,42.207,-71.6856,51.15,75,40,10.36,scattered clouds
401,Clifton,US,40.8584,-74.1638,49.5,89,100,18.41,moderate rain
402,Abu Dhabi,AE,24.4667,54.3667,84.31,61,0,6.91,clear sky
403,Chlorakas,CY,34.8042,32.4083,72.48,68,0,8.05,clear sky
404,Xai-Xai,MZ,-25.0519,33.6442,71.31,70,0,6.64,clear sky
405,Bujaru,BR,-1.515,-48.0447,73.72,95,69,5.17,broken clouds
406,Bilibino,RU,68.0546,166.4372,27.41,70,99,2.13,overcast clouds
407,Rio Grande,BR,-32.035,-52.0986,56.17,70,87,10.85,overcast clouds
408,Great Falls,US,47.5002,-111.3008,61.68,74,0,5.75,clear sky
409,Xuanhua,CN,40.6103,115.0447,40.98,23,0,10.87,clear sky
410,Sungaipenuh,ID,-2.0833,101.3833,72.59,77,100,3.31,overcast clouds
411,Itarema,BR,-2.9248,-39.9167,77.76,79,95,14.23,overcast clouds
412,Belmonte,BR,-15.8631,-38.8828,74.66,87,45,9.78,scattered clouds
413,Ventspils,LV,57.3894,21.5606,53.53,82,40,17.27,scattered clouds
414,Kupang,ID,-10.1667,123.5833,90.18,62,40,5.75,scattered clouds
415,Provost,CA,52.3501,-110.2683,58.1,55,21,6.53,few clouds
416,Pringsewu,ID,-5.3582,104.9744,78.28,86,100,5.06,overcast clouds
417,Monzon,ES,41.9108,0.1941,61.81,61,42,3.44,scattered clouds
418,Banda Aceh,ID,5.5577,95.3222,82.69,70,51,11.41,broken clouds
419,Machali,CL,-34.1833,-70.6667,52.21,77,100,2.62,overcast clouds
420,Jambi,ID,-1.6,103.6167,79.88,84,100,2.89,overcast clouds
421,Chapais,CA,49.7834,-74.8492,43.75,73,88,7.25,overcast clouds
422,Bam,IR,29.106,58.357,74.14,24,0,3.96,clear sky
423,Rio Claro,BR,-22.4114,-47.5614,66.67,82,75,4.0,broken clouds
424,Sur,OM,22.5667,59.5289,77.43,74,0,5.21,clear sky
425,Ascension,US,30.2169,-90.9001,71.1,74,0,0.0,clear sky
426,Kavieng,PG,-2.5744,150.7967,85.82,63,100,9.48,overcast clouds
427,Nemuro,JP,43.3236,145.575,67.01,90,100,29.68,light rain
428,Kalawit,PH,8.0667,122.5167,85.32,71,80,2.75,broken clouds
429,Rongcheng,CN,30.634,117.8517,66.45,89,100,9.44,overcast clouds
430,Okhotsk,RU,59.3833,143.3,37.51,46,100,5.28,overcast clouds
431,Bom Jesus,BR,-9.0744,-44.3586,78.35,31,2,3.15,clear sky
432,Simbahan,PH,6.3032,120.5836,83.08,73,47,5.03,scattered clouds
433,Saint-Paul,RE,-21.0096,55.2707,69.89,75,0,3.53,clear sky
434,Kargasok,RU,59.0556,80.8572,33.39,69,100,11.5,overcast clouds
435,Buraydah,SA,26.326,43.975,75.04,16,4,7.18,clear sky
436,Inverell,AU,-29.7833,151.1167,73.67,45,36,3.0,scattered clouds
437,Bataipora,BR,-22.2953,-53.2711,66.38,84,1,4.05,clear sky
438,Paris,FR,48.8534,2.3488,49.3,95,20,2.3,fog
439,Nalut,LY,30.3333,10.85,68.59,45,1,8.32,clear sky
440,Baghdad,IQ,33.3406,44.4009,81.77,16,0,6.06,clear sky
441,Auki,SB,-8.7676,160.7034,85.28,64,100,3.67,overcast clouds
442,Innisfail,AU,-17.5333,146.0333,81.0,64,76,10.98,broken clouds
443,Cayenne,GF,4.9333,-52.3333,78.84,83,0,1.14,clear sky
444,Taraz,KZ,42.9,71.3667,46.81,71,7,8.95,clear sky
445,Lompoc,US,34.6391,-120.4579,70.84,84,5,4.0,clear sky
446,Tuatapere,NZ,-46.1333,167.6833,46.31,90,100,11.36,overcast clouds
447,Bubaque,GW,11.2833,-15.8333,81.01,78,100,10.18,moderate rain
448,Marfino,RU,55.7028,37.3822,51.94,76,75,17.9,broken clouds
449,Ojinaga,MX,29.5667,-104.4167,80.56,29,0,5.75,clear sky
450,Duku,NG,11.2361,4.9073,74.17,89,67,4.16,broken clouds
451,Tambura,SS,5.6,27.4667,67.78,97,100,2.59,light rain
452,Oranjemund,NA,-28.55,16.4333,55.17,94,16,11.59,few clouds
453,Kibondo,TZ,-3.5864,30.7203,61.34,42,15,1.05,few clouds
454,Neverkino,RU,52.7854,46.7417,50.49,89,100,13.89,overcast clouds
455,Sergeyevka,KZ,53.88,67.4158,34.07,50,22,7.2,few clouds
456,Nouadhibou,MR,20.931,-17.0347,74.21,81,83,9.64,broken clouds
457,Chabahar,IR,25.2919,60.643,79.2,80,0,1.36,clear sky
458,Cumberland,US,35.0502,-78.8664,57.49,74,20,13.8,few clouds
459,Mount Isa,AU,-20.7333,139.5,91.17,27,75,12.66,broken clouds
460,Djibo,BF,14.1022,-1.6306,85.42,52,18,14.83,few clouds
461,Cherskiy,RU,68.75,161.3,29.25,71,100,7.78,overcast clouds
462,Nova Serrana,BR,-19.8761,-44.9836,69.46,75,40,1.32,moderate rain
463,Edd,ER,13.9297,41.6925,88.74,57,55,7.85,broken clouds
464,Bollnas,SE,61.3482,16.3946,40.62,90,2,3.85,clear sky
465,Okoneshnikovo,RU,54.8377,75.0834,33.75,68,21,4.81,few clouds
466,Montevideo,UY,-34.8335,-56.1674,55.51,69,40,11.01,scattered clouds
467,Alyangula,AU,-13.8483,136.4192,85.08,68,84,13.11,broken clouds
468,Trebukhiv,UA,50.4843,30.903,45.91,87,100,14.09,light rain
469,Yinchuan,CN,38.4681,106.2731,47.89,34,21,9.1,few clouds
470,Baglung,NP,28.2719,83.5898,70.74,75,30,1.77,scattered clouds
471,Canutama,BR,-6.5339,-64.3831,72.66,96,90,3.67,overcast clouds
472,Urdoma,RU,61.7533,48.5442,48.76,93,100,5.66,overcast clouds
473,Adet,ET,11.2644,37.4888,55.06,86,96,2.1,overcast clouds
474,Roma,US,43.2128,-75.4557,47.73,91,0,1.01,clear sky
475,Chagoda,RU,59.164,35.3285,44.98,91,84,9.15,broken clouds
476,Matay,EG,28.419,30.7792,70.45,60,0,8.63,clear sky
477,Voyvozh,RU,62.892,54.9635,40.89,95,100,6.44,overcast clouds
478,Kondopoga,RU,62.2057,34.2614,45.86,97,100,7.58,overcast clouds
479,Thanh Hoa,VN,19.8,105.7667,80.91,82,14,4.65,few clouds
480,Ulaanbaatar,MN,47.9077,106.8832,26.73,63,0,0.0,clear sky
481,Zeerust,ZA,-25.5369,26.0751,67.28,28,0,3.83,clear sky
482,Belle Fourche,US,44.6714,-103.8522,57.33,78,76,7.23,broken clouds
483,Teahupoo,PF,-17.8333,-149.2667,69.76,82,33,22.53,light rain
484,Samarai,PG,-10.6167,150.6667,81.5,82,93,13.82,overcast clouds
485,Hofn,IS,64.2539,-15.2082,47.64,87,100,23.51,overcast clouds
486,Saint-Joseph,RE,-21.3667,55.6167,66.58,80,25,10.65,scattered clouds
487,Bintulu,MY,3.1667,113.0333,82.02,75,79,2.15,broken clouds
488,Henties Bay,NA,-22.116,14.2845,54.57,95,38,5.12,scattered clouds
489,Bonthe,SL,7.5264,-12.505,76.08,93,100,5.06,overcast clouds
490,Luba,GQ,3.4568,8.5547,76.75,87,96,2.82,overcast clouds
491,Mahibadhoo,MV,3.7833,72.9667,81.52,77,100,17.18,overcast clouds
492,Vestmannaeyjar,IS,63.4427,-20.2734,49.89,82,100,25.68,overcast clouds
493,Qui Nhon,VN,13.7667,109.2333,81.14,81,99,8.37,heavy intensity rain
494,Bloemfontein,ZA,-29.1211,26.214,59.67,14,56,5.12,broken clouds
495,Thessalon,CA,46.2501,-83.5666,44.89,81,87,6.44,overcast clouds
496,Jieshi,CN,22.8134,115.8257,82.67,74,0,4.34,clear sky
497,Ola,RU,59.5833,151.2833,35.15,57,100,15.93,overcast clouds
498,Asfi,MA,32.2994,-9.2372,70.48,64,32,7.58,scattered clouds
499,Namatanai,PG,-3.6667,152.4333,85.55,66,78,7.29,light rain
500,Muravlenko,RU,63.7898,74.523,41.02,98,100,11.99,light rain
501,Manggar,ID,-2.8833,108.2667,83.32,68,81,2.93,broken clouds
502,Nome,US,64.5011,-165.4064,43.16,90,100,10.27,light rain
503,Port Blair,IN,11.6667,92.75,82.0,79,100,14.0,overcast clouds
504,Vanimo,PG,-2.6741,141.3028,87.98,60,70,6.62,broken clouds
505,Tocopilla,CL,-22.092,-70.1979,59.7,68,8,2.44,clear sky
506,Podyuga,RU,61.095,40.8647,45.19,92,27,7.85,scattered clouds
507,Moerai,PF,-22.4333,-151.3333,71.6,64,2,23.89,clear sky
508,Burntwood,GB,52.6808,-1.9276,57.45,89,60,4.0,broken clouds
509,Buta,CD,2.7858,24.73,68.34,100,100,0.76,moderate rain
510,Abalak,RU,58.1286,68.5944,45.82,76,100,9.22,overcast clouds
511,Coquimbo,CL,-29.9533,-71.3436,55.13,82,100,6.91,overcast clouds
512,Kruisfontein,ZA,-34.0033,24.7314,54.88,72,57,12.59,broken clouds
513,Whitehorse,CA,60.7161,-135.0538,48.81,57,46,3.0,scattered clouds
514,Kalmunai,LK,7.4167,81.8167,81.14,65,100,2.42,overcast clouds
515,Paita,PE,-5.0892,-81.1144,63.09,85,76,14.18,broken clouds
516,Roebourne,AU,-20.7833,117.1333,81.25,39,0,12.73,clear sky
517,Nabire,ID,-3.3667,135.4833,81.66,78,90,2.71,overcast clouds
518,Valkeala,FI,60.9401,26.7979,41.4,93,100,11.5,shower rain
519,Benguela,AO,-12.5763,13.4055,71.06,84,22,2.59,few clouds
520,Andenes,NO,69.3143,16.1194,44.92,100,20,8.05,few clouds
521,Illapel,CL,-31.6308,-71.1653,51.75,89,43,2.42,scattered clouds
522,Kingman,US,35.1894,-114.053,77.25,63,0,9.22,clear sky
523,Alghero,IT,40.5589,8.3181,60.89,100,40,1.14,scattered clouds
524,Krasnyy Yar,RU,46.5331,48.3456,62.53,45,100,17.34,overcast clouds
525,Kotovo,RU,50.3211,44.8012,51.37,94,19,6.04,few clouds
526,Outram,MY,1.2829,103.8379,80.62,88,75,3.44,broken clouds
527,Nadvoitsy,RU,63.8667,34.3167,41.04,93,100,14.18,overcast clouds
528,Oksfjord,NO,70.2396,22.3479,44.78,82,100,7.49,overcast clouds
529,Great Yarmouth,GB,52.6083,1.7305,56.01,88,60,12.8,broken clouds
530,Okha,RU,53.5739,142.9478,40.78,88,100,12.33,light rain
531,Miandrivazo,MG,-19.5167,45.4667,72.46,81,0,0.29,clear sky
532,Katobu,ID,-4.9408,122.5276,88.68,57,89,1.52,overcast clouds
533,Saint-Pierre,RE,-21.3393,55.4781,67.68,68,0,5.75,clear sky
534,Voi,KE,-3.3945,38.563,65.01,85,76,5.23,broken clouds
535,Malartic,CA,48.1335,-78.1328,50.02,72,97,5.64,overcast clouds
536,Am Timan,TD,11.0297,20.2827,67.8,88,100,1.25,light rain
537,Kerman,IR,30.2832,57.0788,65.8,35,4,1.68,clear sky
538,Mehamn,NO,71.0357,27.8492,37.31,93,20,0.0,few clouds
539,Kulhudhuffushi,MV,6.6221,73.07,80.58,80,100,14.92,overcast clouds
540,General Roca,AR,-39.0333,-67.5833,58.66,80,85,3.38,overcast clouds
541,Novikovo,RU,51.1537,37.8879,49.87,76,92,14.0,overcast clouds
542,Catalina,US,32.5056,-110.9211,85.23,32,97,1.99,overcast clouds
543,Goderich,CA,43.7501,-81.7165,48.9,57,8,5.32,clear sky
544,Miri,MY,4.4148,114.0089,83.26,74,95,5.55,overcast clouds
545,Lindi,TZ,-10.0,39.7167,65.17,95,10,3.06,clear sky
546,Shetpe,KZ,44.1667,52.1167,52.66,34,29,12.17,scattered clouds
547,Tual,ID,-5.6667,132.75,82.45,78,58,6.62,broken clouds
548,Faanui,PF,-16.4833,-151.75,78.42,75,4,14.74,light rain
549,Gidole,ET,5.65,37.3667,57.09,77,100,0.72,light rain
550,Meulaboh,ID,4.1363,96.1285,77.14,85,98,1.34,light rain
551,Chepareria,KE,1.3077,35.2039,59.5,88,97,3.09,overcast clouds
552,Coihaique,CL,-45.5752,-72.0662,48.15,61,0,2.3,clear sky
553,Batticaloa,LK,7.7102,81.6924,79.97,68,100,5.61,overcast clouds
554,Yarmouth,US,41.7057,-70.2286,55.96,74,100,17.27,overcast clouds
555,Sisophon,KH,13.5859,102.9737,76.14,92,100,6.73,overcast clouds
556,Bata,GQ,1.8639,9.7658,75.85,87,99,2.57,moderate rain
557,Aswan,EG,24.0934,32.907,81.66,38,0,10.45,clear sky
558,Timizart,DZ,36.8,4.2667,70.97,61,100,1.03,overcast clouds
559,Tarakan,ID,3.3,117.6333,85.5,74,20,4.61,few clouds
560,Emirdag,TR,39.0197,31.15,49.03,81,0,3.18,clear sky
561,Sault Sainte Marie,CA,46.5168,-84.3333,52.36,87,0,0.0,clear sky
